City_ID,City,Lat,Lng,Max Temp,Humidity,Cloudiness,Wind Speed,Country,Date
0,Suchiapa,16.6167,-93.0833,80.92,39,0,39.12,MX,1707170689
1,Adamstown,-25.066,-130.1015,75.63,82,100,15.35,PN,1707170690
2,Lakhipur,26.0299,90.3041,56.5,79,42,7.29,IN,1707170690
3,Papatowai,-46.5619,169.4708,70.48,56,100,9.55,NZ,1707170690
4,Qaqortoq,60.7167,-46.0333,-6.03,69,0,6.26,GL,1707170690
5,Blackmans Bay,-43.0167,147.3167,55.72,65,51,4.21,AU,1707170690
6,Grytviken,-54.2811,-36.5092,44.58,74,90,12.95,GS,1707170690
7,Ayancik,41.9447,34.5861,52.61,72,89,12.01,TR,1707170690
8,Adigrat,14.277,39.462,58.66,73,47,1.52,ET,1707170690
9,Nova Sintra,14.8667,-24.7167,69.89,68,0,15.7,CV,1707170690
10,Port Elizabeth,-33.918,25.5701,70.11,95,100,9.22,ZA,1707170611
11,Sona,45.4388,10.8255,49.95,87,100,3.44,IT,1707170691
12,Vilyuchinsk,52.9306,158.4028,14.27,76,78,8.46,RU,1707170691
13,Folkston,30.8305,-82.0098,56.98,89,100,7.4,US,1707170691
14,Lebu,-37.6167,-73.65,66.81,80,93,7.67,CL,1707170691
15,Longyearbyen,78.2186,15.6401,24.64,68,75,11.5,SJ,1707170691
16,Puerto Natales,-51.7236,-72.4875,61.25,33,20,29.93,CL,1707170691
17,Mount Gambier,-37.8333,140.7667,60.62,56,4,6.51,AU,1707170691
18,Lihue,21.9789,-159.3672,79.84,63,40,19.57,US,1707170691
19,Isafjordur,66.0755,-23.124,17.01,76,100,8.63,IS,1707170691
20,Susuman,62.7833,148.1667,-20.02,89,100,3.0,RU,1707170691
21,Tiksi,71.6872,128.8694,-26.77,96,50,3.4,RU,1707170691
22,Ilulissat,69.2167,-51.1,-3.98,71,100,1.14,GL,1707170691
23,Olonkinbyen,70.9221,-8.7187,26.94,70,72,19.6,SJ,1707170692
24,Port-Aux-Francais,-49.35,70.2167,42.69,82,99,27.78,TF,1707170692
25,Udachny,66.4167,112.4,-8.55,76,100,4.63,RU,1707170565
26,Edinburgh Of The Seven Seas,-37.0676,-12.3116,60.4,64,1,5.39,SH,1707170692
27,Waitangi,-43.9535,-176.5597,65.82,86,97,18.16,NZ,1707170692
28,San Antonio De Pale,-1.4014,5.6325,81.95,75,79,5.44,GQ,1707170692
29,Avarua,-21.2078,-159.775,86.05,79,40,18.41,CK,1707170692
30,Severnoye,56.3491,78.3619,23.99,93,100,17.0,RU,1707170692
31,Talnakh,69.4865,88.3972,-9.72,89,94,4.97,RU,1707170692
32,La Passe,45.5549,-0.8967,43.03,78,100,5.59,FR,1707170692
33,Ushuaia,-54.8,-68.3,53.26,50,0,20.71,AR,1707170678
34,Les Anglais,18.3054,-74.2197,77.99,83,24,12.3,HT,1707170693
35,San Patricio,28.017,-97.5169,66.29,57,88,14.36,US,1707170693
36,Wailua Homesteads,22.0669,-159.378,79.23,64,40,19.57,US,1707170693
37,Keflavik,64.0049,-22.5624,19.83,68,20,23.02,IS,1707170693
38,Hithadhoo,-0.6,73.0833,82.89,76,100,8.37,MV,1707170693
39,Katsuura,35.1333,140.3,40.95,94,100,20.45,JP,1707170693
40,Galle,6.0367,80.217,74.71,90,89,6.13,LK,1707170693
41,La Reforma,25.0833,-108.05,78.24,37,5,11.45,MX,1707170693
42,Albany,42.6001,-73.9662,34.74,45,1,4.97,US,1707170632
43,Luis Correia,-2.8792,-41.6669,86.0,70,0,14.97,BR,1707170693
44,Ust'-Kut,56.7938,105.7672,16.43,96,100,5.01,RU,1707170693
45,Thompson,55.7435,-97.8558,30.36,93,100,2.3,CA,1707170580
46,Bethel,41.3712,-73.414,39.45,48,0,13.8,US,1707170755
47,Klaksvik,62.2266,-6.589,31.12,65,100,31.34,FO,1707170755
48,Iqaluit,63.7506,-68.5145,-2.31,77,100,0.0,CA,1707170569
49,West Island,-12.1568,96.8225,80.58,89,40,8.05,CC,1707170755
50,Vernon,50.2581,-119.2691,36.21,86,100,0.0,CA,1707170755
51,Mandalgovi,45.7625,106.2708,-3.17,91,5,6.33,MN,1707170755
52,Pisco,-13.7,-76.2167,84.25,61,0,14.97,PE,1707170755
53,Balboa,2.0396,-77.2168,67.37,88,92,4.14,CO,1707170755
54,Yellowknife,62.456,-114.3525,-6.45,77,0,3.44,CA,1707170756
55,Mongo,12.1844,18.693,74.32,17,5,9.4,TD,1707170756
56,Bubaque,11.2833,-15.8333,79.72,77,0,11.52,GW,1707170756
57,Hammerfest,70.6634,23.6821,16.25,79,0,3.44,NO,1707170756
58,Kendari,-3.945,122.4989,76.03,90,100,1.07,ID,1707170756
59,Alice Springs,-23.7,133.8833,75.22,38,100,17.27,AU,1707170756
60,Atafu Village,-8.5421,-172.5159,83.8,78,100,26.15,TK,1707170756
61,Iskateley,67.6803,53.1512,-1.98,97,100,4.0,RU,1707170756
62,Kerikeri,-35.2268,173.9474,70.92,80,1,4.29,NZ,1707170621
63,Tura,25.5198,90.2201,59.81,60,97,1.7,IN,1707170756
64,Fort Bragg,35.139,-79.006,57.34,30,0,8.05,US,1707170756
65,Rio Grande,-32.035,-52.0986,78.91,82,68,12.5,BR,1707170757
66,Zeya,53.75,127.2667,-12.51,100,100,2.06,RU,1707170757
67,Bikenibeu Village,1.3673,173.1241,85.96,79,75,10.36,KI,1707170757
68,Ribeira Grande,38.5167,-28.7,63.77,88,75,8.01,PT,1707170757
69,Ulsteinvik,62.3432,5.8487,29.32,93,82,5.01,NO,1707170757
70,Kodiak,57.79,-152.4072,36.91,81,0,4.61,US,1707170757
71,Ta`U,-14.2336,-169.5144,81.5,81,91,5.14,AS,1707170757
72,Dudinka,69.4058,86.1778,-13.32,97,93,4.0,RU,1707170757
73,Chernyshevskiy,63.0128,112.4714,-3.77,99,100,1.97,RU,1707170757
74,Pansoy,13.1825,122.5989,74.79,87,83,14.09,PH,1707170757
75,Whitehorse,60.7161,-135.0538,-5.03,77,75,5.75,CA,1707170578
76,Quellon,-43.1167,-73.6167,64.02,66,62,5.68,CL,1707170757
77,Changqing,36.5575,116.7272,22.23,89,50,1.95,CN,1707170758
78,Barah,13.7,30.3667,62.37,18,12,10.76,SD,1707170758
79,Rumonge,-3.9736,29.4386,71.1,84,97,4.07,BI,1707170758
80,Placido De Castro,-10.3353,-67.1856,84.87,58,52,3.09,BR,1707170758
81,Berezovyy,51.6667,135.7,-10.48,96,5,2.35,RU,1707170758
82,Fort Mcmurray,56.7268,-111.381,13.59,67,0,12.66,CA,1707170758
83,Ghadamis,30.1337,9.5007,55.4,44,0,7.54,LY,1707170758
84,Stanley,54.868,-1.6985,51.39,81,75,18.41,GB,1707170515
85,Agat Village,13.3886,144.6585,81.54,78,75,12.66,GU,1707170758
86,Hermanus,-34.4187,19.2345,69.8,85,10,4.07,ZA,1707170758
87,Touros,-5.1989,-35.4608,81.88,77,28,12.66,BR,1707170758
88,Puerto Ayora,-0.7393,-90.3518,85.96,93,75,5.99,EC,1707170758
89,Atoyac,20.0167,-103.5333,83.1,11,6,5.35,MX,1707170759
90,Natal,-5.795,-35.2094,84.42,74,20,10.36,BR,1707170759
91,Ljusdal,61.8288,16.0913,4.8,98,54,3.36,SE,1707170759
92,Vorgashor,67.5833,63.95,-12.59,98,36,5.57,RU,1707170759
93,Maceio,-9.6658,-35.7353,81.84,83,20,6.91,BR,1707170759
94,Invercargill,-46.4,168.35,69.03,73,100,8.01,NZ,1707170759
95,Xiuyan,40.2928,123.2744,10.62,91,19,5.95,CN,1707170759
96,Vadso,70.0744,29.7487,19.56,86,75,8.05,NO,1707170759
97,College,64.8569,-147.8028,6.8,76,20,0.0,US,1707170760
98,Forster,-32.1667,152.5167,83.37,78,79,0.87,AU,1707170760
99,Ust-Nera,64.5667,143.2,-17.3,85,100,0.89,RU,1707170760
100,Geneina,13.45,22.45,65.98,17,22,21.45,SD,1707170760
101,Naze,28.3667,129.4833,59.92,69,8,13.78,JP,1707170760
102,Sandnessjoen,66.0217,12.6316,24.91,93,20,2.3,NO,1707170760
103,Port Mathurin,-19.6833,63.4167,78.21,69,59,16.55,MU,1707170760
104,Sisimiut,66.9395,-53.6735,-1.03,75,5,13.89,GL,1707170760
105,Umm Kaddadah,13.6017,26.6876,62.13,15,56,16.31,SD,1707170760
106,Melekeok Village,7.4957,134.6367,75.76,100,100,8.05,PW,1707170760
107,Utrik,11.2278,169.8474,79.65,83,17,19.93,MH,1707170760
108,Chiredzi,-21.05,31.6667,76.33,63,1,5.12,ZW,1707170760
109,Lang Son,21.8333,106.7333,64.99,95,100,2.64,VN,1707170761
110,Cochrane,51.1834,-114.4687,30.52,71,100,2.3,CA,1707170761
111,Fereydun Kenar,36.6864,52.5225,53.49,52,83,9.44,IR,1707170761
112,Praia Da Vitoria,38.7333,-27.0667,64.65,94,75,17.22,PT,1707170761
113,Tambura,5.6,27.4667,76.66,33,83,3.24,SS,1707170761
114,Rouissat,31.9243,5.3502,53.67,47,0,2.3,DZ,1707170761
115,Konarka,19.9,86.1167,73.8,85,0,10.74,IN,1707170761
116,Srivardhan,18.0333,73.0167,74.73,66,0,7.7,IN,1707170761
117,Tralee,52.2704,-9.7026,51.76,82,100,13.42,IE,1707170761
118,Saipan,15.1355,145.701,79.5,65,40,13.8,MP,1707170761
119,Badger,64.8,-147.5333,6.71,75,20,0.0,US,1707170762
120,Bilibino,68.0546,166.4372,-31.81,100,100,0.63,RU,1707170762
121,Kavieng,-2.5744,150.7967,83.43,75,100,3.29,PG,1707170762
122,Enewetak,11.3474,162.3373,79.66,73,93,18.61,MH,1707170762
123,Yaguajay,22.3272,-79.2378,78.84,52,0,21.85,CU,1707170762
124,Guozhen,34.3659,107.359,31.57,83,100,2.71,CN,1707170762
125,Kolpino,59.7507,30.5886,26.65,93,40,6.71,RU,1707170762
126,Hawaiian Paradise Park,19.5933,-154.9731,74.03,80,75,6.91,US,1707170650
127,Uturoa,-16.7333,-151.4333,82.15,85,100,26.15,PF,1707170762
128,Pacific Grove,36.6177,-121.9166,58.42,76,75,1.99,US,1707170763
129,Polyarnyy,69.1989,33.4478,-1.68,100,98,7.02,RU,1707170763
130,Dauphin,51.1494,-100.0502,39.34,87,100,11.5,CA,1707170763
131,Tazovsky,67.4667,78.7,-13.18,100,63,8.93,RU,1707170763
132,Zharkent,44.1628,80.0,15.98,77,77,3.83,KZ,1707170763
133,Salym,60.0625,71.4789,32.67,97,100,11.9,RU,1707170763
134,Luderitz,-26.6481,15.1594,65.7,90,0,7.7,NA,1707170763
135,Thief River Falls,48.1191,-96.1812,34.75,100,100,9.22,US,1707170763
136,Tolanaro,-25.0319,46.9987,73.47,88,75,24.16,MG,1707170763
137,Yuzhno-Kurilsk,44.0306,145.8556,21.38,60,72,15.82,RU,1707170763
138,Ketchikan,55.3422,-131.6461,40.33,81,40,14.97,US,1707170764
139,Merizo Village,13.2658,144.6691,81.16,84,99,18.86,GU,1707170764
140,La Ronge,55.1001,-105.2842,23.25,80,100,6.91,CA,1707170764
141,Manay,7.215,126.5397,77.14,78,100,2.64,PH,1707170764
142,Grand Falls-Windsor,48.9332,-55.6649,31.5,95,100,17.29,CA,1707170764
143,Saint-Philippe,-21.3585,55.7679,71.19,78,91,8.03,RE,1707170764
144,Dubbo,-32.25,148.6167,73.53,88,100,0.0,AU,1707170617
145,Puerto Baquerizo Moreno,-0.9,-89.6,83.39,79,20,9.22,EC,1707170764
146,Jamestown,42.097,-79.2353,33.39,82,74,8.01,US,1707170670
147,Sinabang,2.4803,96.3801,80.24,81,100,1.48,ID,1707170764
148,Waingapu,-9.6567,120.2641,77.38,85,70,6.31,ID,1707170764
149,Dunedin,-45.8742,170.5036,66.22,60,100,3.67,NZ,1707170505
150,Hirtshals,57.5881,9.9592,36.68,91,100,6.62,DK,1707170765
151,Flying Fish Cove,-10.4217,105.6791,74.88,94,75,1.14,CX,1707170765
152,Fortuna,40.5982,-124.1573,50.94,97,40,1.01,US,1707170765
153,Fort St. John,56.2499,-120.8529,19.29,79,75,3.44,CA,1707170765
154,Sant Lluis,39.8526,4.2594,55.8,100,0,10.36,ES,1707170765
155,Arraial Do Cabo,-22.9661,-42.0278,82.26,74,40,12.66,BR,1707170535
156,Sanya,18.2431,109.505,73.56,88,20,8.95,CN,1707170765
157,Guiuan,11.0333,125.7247,80.13,80,100,13.96,PH,1707170766
158,Georgetown,5.4112,100.3354,79.95,89,20,0.0,MY,1707170766
159,Murzuq,25.9155,13.9184,52.14,41,0,7.27,LY,1707170766
160,Sao Vicente,-23.9631,-46.3919,87.98,52,20,6.91,BR,1707170660
161,Cheremshan,54.6667,51.5,28.65,93,100,17.76,RU,1707170766
162,Hilo,19.7297,-155.09,74.25,82,80,4.0,US,1707170598
163,Mangrol,21.1167,70.1167,71.24,83,6,7.76,IN,1707170766
164,Senise,40.1471,16.2889,42.39,86,10,6.67,IT,1707170766
165,Kayangel,8.0823,134.7173,81.9,84,100,21.47,PW,1707170766
166,Bengkulu,-3.8004,102.2655,76.39,90,100,3.83,ID,1707170645
167,Afaahiti,-17.75,-149.2833,80.47,91,100,21.45,PF,1707170767
168,San Pedro Pochutla,15.7333,-96.4667,82.11,66,59,7.23,MX,1707170767
169,Plymouth,41.8334,-70.8328,38.21,49,2,9.42,US,1707170626
170,Port Alfred,-33.5906,26.891,71.19,96,5,1.12,ZA,1707170767
171,Leteri,24.05,77.4,60.69,87,22,5.77,IN,1707170767
172,Balakhta,55.38,91.6,2.89,98,67,1.83,RU,1707170767
173,Kingston,17.997,-76.7936,77.95,96,100,17.27,JM,1707170767
174,San Luis De La Loma,17.2706,-100.8939,83.01,62,2,7.52,MX,1707170767
175,Porvoo,60.3923,25.6651,25.3,86,94,7.27,FI,1707170767
176,Amungan,15.3652,119.9582,76.03,78,34,4.92,PH,1707170767
177,Okhotsk,59.3833,143.3,-10.41,81,55,12.59,RU,1707170768
178,Hadibu,12.65,54.0333,76.55,74,10,6.87,YE,1707170768
179,Wagar,16.1525,36.2032,69.21,60,81,14.74,SD,1707170768
180,Nikolayevsk-On-Amure,53.1406,140.73,-10.84,99,85,3.96,RU,1707170768
181,Bejaia,36.7559,5.0843,51.08,71,0,5.75,DZ,1707170768
182,Jasrasar,28.298,74.8093,53.1,43,39,8.81,IN,1707170768
183,Kamaishi,39.2667,141.8833,31.24,76,99,7.67,JP,1707170768
184,Punta Arenas,-53.15,-70.9167,55.51,54,20,29.93,CL,1707170550
185,Belidzhi,41.8918,48.4125,43.99,57,100,5.91,RU,1707170768
186,Manokwari,-0.8667,134.0833,78.57,82,100,6.33,ID,1707170768
187,Ancud,-41.8697,-73.8203,62.01,80,86,10.2,CL,1707170769
188,Sabha,27.0377,14.4283,52.29,42,0,5.28,LY,1707170769
189,Guarapari,-20.6667,-40.4975,77.85,87,100,9.64,BR,1707170769
190,Castillos,-34.1667,-53.8333,71.4,66,49,13.15,UY,1707170769
191,Minas De Marcona,-15.2119,-75.1103,71.55,74,31,10.96,PE,1707170769
192,Luwuk,-0.9516,122.7875,78.08,87,100,2.68,ID,1707170769
193,Cumana,10.4635,-64.1775,82.78,71,75,5.1,VE,1707170769
194,Arar,30.9753,41.0381,48.22,53,0,9.22,SA,1707170769
195,Bambari,5.768,20.6757,82.47,26,16,3.22,CF,1707170769
196,Lan Sak,15.4529,99.5761,71.51,39,0,4.25,TH,1707170769
197,Puerto Aysen,-45.4,-72.7,66.81,50,10,6.29,CL,1707170769
198,Cidreira,-30.1811,-50.2056,76.14,87,42,10.49,BR,1707170770
199,Swift Current,50.2834,-107.8014,29.21,93,100,8.05,CA,1707170770
200,Moab,38.5733,-109.5498,57.49,39,61,9.44,US,1707170770
201,Lytham St Annes,53.7426,-2.997,54.46,86,100,27.36,GB,1707170770
202,Fale Old Settlement,-9.3852,-171.2468,84.42,78,87,25.95,TK,1707170770
203,Vilyuysk,63.7553,121.6247,-36.99,100,87,3.0,RU,1707170770
204,Kununurra,-15.7667,128.7333,78.78,94,2,2.3,AU,1707170627
205,Vorkuta,67.5,64.0,-13.25,98,38,4.52,RU,1707170770
206,Saint-Joseph,-21.3667,55.6167,70.18,76,90,7.7,RE,1707170771
207,Holualoa,19.6228,-155.9522,76.84,70,40,13.8,US,1707170771
208,Mundri,-6.9558,111.71,75.38,95,100,4.88,ID,1707170771
209,Lisbon,38.7167,-9.1333,61.07,86,0,6.91,PT,1707170606
210,Tidjikja,18.5564,-11.4271,70.02,8,0,13.35,MR,1707170771
211,Hamilton,39.1834,-84.5333,53.94,50,0,8.01,US,1707170527
212,Pangkalpinang,-2.1333,106.1333,77.68,88,100,5.1,ID,1707170771
213,Cox'S Bazar,21.4532,91.9798,62.98,64,0,6.78,BD,1707170772
214,Dera Bugti,29.0307,69.151,54.97,54,15,6.46,PK,1707170772
215,Jimena De La Frontera,36.4352,-5.4539,57.34,76,100,3.13,ES,1707170772
216,Devils Lake,48.1128,-98.8651,37.38,87,100,6.91,US,1707170772
217,Bredasdorp,-34.5322,20.0403,71.28,76,1,1.68,ZA,1707170772
218,Villa Alemana,-33.0422,-71.3733,75.51,61,0,16.11,CL,1707170539
219,Murmashi,68.8154,32.8115,-15.59,75,0,4.0,RU,1707170772
220,Matveyev Kurgan,47.5645,38.8695,36.93,78,100,21.27,RU,1707170772
221,Margaret River,-33.95,115.0667,52.72,89,78,8.46,AU,1707170772
222,Ad Dilam,23.9915,47.1627,57.61,41,100,6.85,SA,1707170773
223,Tomatlan,19.9333,-105.25,85.01,37,1,7.87,MX,1707170773
224,Alesund,62.4723,6.1549,29.34,93,75,5.75,NO,1707170593
225,Watertown,42.3709,-71.1828,39.06,34,0,10.36,US,1707170773
226,Labrador City,52.9463,-66.9114,4.91,56,0,4.61,CA,1707170773
227,Tazacorte,28.629,-17.9293,68.14,23,0,9.22,ES,1707170773
228,Hailar,49.2,119.7,-22.11,99,19,3.22,CN,1707170773
229,Kuanda,56.3161,116.0806,-13.36,96,76,1.19,RU,1707170773
230,Boende,-0.2167,20.8667,73.65,78,46,2.66,CD,1707170773
231,Patacamaya,-17.2333,-67.9167,56.73,54,77,10.16,BO,1707170773
232,Neryungri,56.6709,124.6491,-13.86,95,85,1.79,RU,1707170774
233,Petropavlovsk-Kamchatsky,53.0452,158.6483,12.79,80,75,7.0,RU,1707170774
234,Aykhal,66.0,111.5,-6.57,100,100,5.28,RU,1707170774
235,Nepalgunj,28.05,81.6167,52.32,90,0,5.41,NP,1707170515
236,Correntina,-13.3433,-44.6367,77.7,59,100,2.3,BR,1707170666
237,Garbsen,52.4167,9.6,50.05,83,75,21.85,DE,1707170774
238,Amparafaravola,-17.5833,48.2167,67.71,99,100,3.27,MG,1707170774
239,Tadine,-21.55,167.8833,79.54,85,100,18.68,NC,1707170774
240,La Palma,33.8464,-118.0467,59.02,96,100,4.61,US,1707170774
241,Yambio,4.5721,28.3955,73.94,43,78,3.42,SS,1707170774
242,Port Lincoln,-34.7333,135.8667,61.88,59,0,10.25,AU,1707170775
243,Dhuusamarreeb,5.535,46.3861,75.67,65,73,14.92,SO,1707170775
244,Ingeniero Guillermo N. Juarez,-23.9,-61.85,102.58,21,66,12.68,AR,1707170775
245,Wynyard,-41.0,145.7167,57.85,55,0,9.15,AU,1707170775
246,Laojunmiao,39.8333,97.7333,14.58,80,100,6.11,CN,1707170775
247,Contamana,-7.3333,-75.0167,92.5,44,82,5.75,PE,1707170775
248,Santa Terezinha,-29.9002,-50.0904,76.48,88,70,9.44,BR,1707170775
249,Bansang,13.4333,-14.65,85.14,13,0,5.91,GM,1707170776
250,Al Kharijah,25.4514,30.5464,52.38,45,0,6.33,EG,1707170776
251,Raduzhnyy,62.0961,77.475,10.87,95,100,11.74,RU,1707170776
252,Mirny,62.5353,113.9611,0.48,98,99,2.66,RU,1707170776
253,Bojia,26.4672,111.9681,34.07,92,100,4.29,CN,1707170776
254,Ola,59.5833,151.2833,-8.55,83,100,10.07,RU,1707170776
255,Howard Springs,-12.497,131.047,83.88,95,62,5.44,AU,1707170776
256,Carnarvon,-24.8667,113.6333,81.05,33,10,20.0,AU,1707170776
257,Cimin,39.7101,39.7021,33.87,75,100,11.5,TR,1707170776
258,Alva,56.1528,-3.8051,50.34,91,100,21.07,GB,1707170776
259,Sanctuary Point,-35.1114,150.629,69.75,97,100,14.45,AU,1707170776
260,Happy Valley-Goose Bay,53.3168,-60.3315,12.51,73,75,3.44,CA,1707170539
261,Egilsstadir,65.2653,-14.3948,13.91,73,0,9.22,IS,1707170777
262,Nuuk,64.1835,-51.7216,9.21,78,75,12.66,GL,1707170640
263,Uliastay,47.7417,96.8444,-5.12,69,100,6.11,MN,1707170777
264,La Gi,10.6667,107.7833,72.93,87,52,9.46,VN,1707170777
265,Bamboo Flat,11.7,92.7167,71.69,94,4,0.0,IN,1707170777
266,Mossel Bay,-34.1831,22.146,73.33,83,58,8.37,ZA,1707170777
267,Moapa Valley,36.5805,-114.4703,51.55,51,99,10.22,US,1707170649
268,Amarante Do Maranhao,-5.5667,-46.7422,75.83,88,96,3.89,BR,1707170777
269,El Bauga,18.262,33.9081,62.08,14,95,16.67,SD,1707170777
270,Prince Rupert,54.3161,-130.3201,40.69,81,0,3.44,CA,1707170777
271,Saint-Pierre,-21.3393,55.4781,71.28,73,0,3.44,RE,1707170778
272,Palmas,-10.2128,-48.3603,80.47,83,20,3.44,BR,1707170778
273,Constantia,44.1833,28.65,50.7,74,52,17.16,RO,1707170778
274,Mizan Teferi,6.9833,35.5833,65.05,87,43,3.83,ET,1707170778
275,Marka,1.7159,44.7717,79.16,83,90,11.99,SO,1707170778
276,Saint-Francois,46.4154,3.9054,37.65,100,75,3.44,FR,1707170778
277,Taroa,8.7058,171.2275,80.98,79,100,17.29,MH,1707170778
278,Mirnyy,62.5353,113.9611,0.48,98,99,2.66,RU,1707170778
279,Imperatriz,-5.5264,-47.4917,77.81,87,90,3.87,BR,1707170682
280,Sydney Mines,46.2367,-60.2177,35.15,98,100,16.11,CA,1707170778
281,N'Zeto,-7.2312,12.8666,81.34,84,99,1.61,AO,1707170778
282,Cutral-Co,-38.9469,-69.2089,94.14,8,75,8.61,AR,1707170778
283,Yugorsk,61.3133,63.3319,0.9,92,98,3.29,RU,1707170779
284,Ayr,55.4627,-4.6339,50.31,93,75,25.32,GB,1707170779
285,Haiku-Pauwela,20.9219,-156.3051,77.25,62,20,19.57,US,1707170779
286,El Calafate,-50.3408,-72.2768,57.92,45,70,8.99,AR,1707170779
287,El Nido,11.1858,119.3956,79.0,78,87,7.67,PH,1707170779
288,Altos,-5.0381,-42.46,89.91,39,100,7.56,BR,1707170779
289,Gangneung,37.7556,128.8961,28.96,89,100,6.85,KR,1707170779
290,Tsiombe,-25.3,45.4833,73.09,92,100,10.04,MG,1707170779
291,Viana Do Castelo,41.6932,-8.8329,53.49,84,99,3.09,PT,1707170779
292,Sainte-Marie,-20.8968,55.5496,73.53,64,0,4.61,RE,1707170780
293,Rikaze,29.25,88.8833,25.99,28,0,4.07,CN,1707170780
294,Takoradi,4.8845,-1.7554,79.95,87,1,6.58,GH,1707170780
295,Isangel,-19.55,169.2667,78.35,91,100,7.96,VU,1707170780
296,Al Bawiti,28.3492,28.8659,52.66,55,0,5.5,EG,1707170780
297,Kristiansund,63.1115,7.732,28.45,93,40,2.3,NO,1707170780
298,Manta,-0.95,-80.7333,85.78,83,75,15.01,EC,1707170780
299,Zhoushan,30.0108,122.2047,37.58,83,99,13.58,CN,1707170780
300,Nar'Yan-Mar,67.6713,53.087,-1.89,97,100,4.0,RU,1707170780
301,Mount Pearl,47.5166,-52.7813,33.46,97,100,14.97,CA,1707170780
302,Gundorovskiy,46.7805,41.8968,38.59,97,100,23.22,RU,1707170781
303,Naryn,41.4287,75.9911,7.86,72,100,8.19,KG,1707170780
304,Khamaria,23.2167,79.8833,62.65,80,5,6.06,IN,1707170781
305,Chabua,27.4825,95.1736,56.64,95,100,4.0,IN,1707170781
306,Puri,19.8,85.85,73.92,84,0,13.2,IN,1707170781
307,Filipstad,59.7124,14.1683,10.11,96,35,3.2,SE,1707170781
308,Ellsworth,44.5434,-68.4195,29.61,71,100,12.66,US,1707170610
309,Almeirim,-1.5233,-52.5817,87.73,50,44,6.15,BR,1707170781
310,Hepo,23.4308,115.8299,59.52,87,100,3.85,CN,1707170781
311,East London,-33.0153,27.9116,74.19,86,0,5.28,ZA,1707170782
312,Anadyr,64.75,177.4833,-8.9,77,100,15.66,RU,1707170782
313,El Galpon,-25.3807,-64.6526,92.43,36,70,4.7,AR,1707170782
314,Port Blair,11.6667,92.75,71.64,94,4,0.0,IN,1707170782
315,Idritsa,56.3316,28.8988,23.18,94,39,8.01,RU,1707170782
316,Fenoarivo Be,-18.4333,46.5667,66.0,99,100,2.59,MG,1707170782
317,Kavaratti,10.5669,72.642,82.15,74,72,8.19,IN,1707170782
318,Revda,56.801,59.9303,25.66,89,81,9.01,RU,1707170782
319,Marsabit,2.3284,37.9899,74.55,38,76,10.92,KE,1707170782
320,Magadan,59.5667,150.8,-7.33,76,100,9.13,RU,1707170782
321,Alta,69.9689,23.2717,6.19,80,47,6.91,NO,1707170782
322,Pimentel,-6.8367,-79.9342,82.69,65,75,14.97,PE,1707170783
323,Kapuskasing,49.4169,-82.4331,26.69,100,100,4.61,CA,1707170649
324,New Norfolk,-42.7826,147.0587,56.91,54,67,3.74,AU,1707170783
325,Port Sudan,19.6175,37.2164,69.64,62,86,12.28,SD,1707170783
326,Port Pirie,-33.1833,138.0167,62.74,51,0,15.26,AU,1707170783
327,Apolinario Saravia,-24.4328,-63.9954,100.29,23,64,10.07,AR,1707170783
328,Dhidhdhoo,6.8833,73.1,81.84,80,19,11.07,MV,1707170783
329,Salamanca,40.8333,-6.0,42.58,83,100,2.89,ES,1707170783
330,Tamanrasset,22.785,5.5228,53.51,19,0,19.57,DZ,1707170783
331,Gwanda,-20.9333,29.0,74.35,54,6,4.68,ZW,1707170783
332,Saudarkrokur,65.7461,-19.6394,17.73,87,100,10.71,IS,1707170783
333,Morant Bay,17.8815,-76.4093,78.42,83,31,15.59,JM,1707170783
334,Eydhafushi,5.1033,73.0708,81.95,73,21,14.97,MV,1707170787
335,Kruisfontein,-34.0033,24.7314,67.89,86,0,3.67,ZA,1707170787
336,Paradip Garh,20.3167,86.6167,72.41,85,0,8.93,IN,1707170787
337,Nahiyat Ash Shinafiyah,31.5874,44.6602,58.26,35,60,10.29,IQ,1707170787
338,Acarau,-2.8856,-40.12,81.95,78,13,18.21,BR,1707170787
339,Puerto Armuelles,8.2833,-82.8667,89.58,57,3,10.0,PA,1707170787
340,Aden,12.7794,45.0367,77.81,68,61,5.48,YE,1707170787
341,Puerto Real,36.5282,-6.1901,55.26,87,0,2.3,ES,1707170788
342,Kirakat,25.6333,82.9167,62.67,95,63,3.06,IN,1707170788
343,Shijiang,27.0819,110.7933,32.47,97,100,3.67,CN,1707170788
344,St. John'S,47.5649,-52.7093,34.29,97,100,15.99,CA,1707170599
345,Big Bend,-26.8167,31.9333,67.53,95,76,2.59,SZ,1707170788
346,Ghat,24.9647,10.1728,52.14,37,6,4.76,LY,1707170788
347,Burang,30.25,81.1667,2.35,75,42,5.61,CN,1707170788
348,Sitangkai,4.6628,119.3928,80.67,82,97,9.4,PH,1707170788
349,Were Ilu,10.6,39.4333,52.25,78,41,5.88,ET,1707170788
350,Alapa,8.6167,4.3833,80.13,16,36,5.99,NG,1707170788
351,Quchan,37.106,58.5095,31.93,74,9,6.49,IR,1707170788
352,Ponta Delgada,37.7333,-25.6667,65.19,94,40,12.66,PT,1707170789
353,Rio Verde De Mato Grosso,-18.9181,-54.8442,74.88,87,100,7.11,BR,1707170789
354,Pangai,-19.8,-174.35,84.31,74,40,9.22,TO,1707170789
355,Darovskoy,58.77,47.9564,-3.06,100,100,2.89,RU,1707170789
356,Bardai,11.65,7.2333,66.42,15,17,13.89,NG,1707170789
357,Palmer,42.1584,-72.3287,38.57,28,0,12.66,US,1707170789
358,Howrah,22.5892,88.3103,71.6,88,40,4.61,IN,1707170789
359,Sabi,13.2333,-14.2,85.64,13,0,6.98,GM,1707170789
360,Makaha,21.4694,-158.2175,80.51,56,75,17.27,US,1707170789
361,Aras-Asan,8.8908,126.3033,75.65,87,99,3.22,PH,1707170789
362,Riohacha,11.5444,-72.9072,82.81,70,29,9.19,CO,1707170789
363,Bereeda,11.8704,51.0579,76.48,79,10,4.68,SO,1707170789
364,Lorengau,-2.0226,147.2712,83.21,79,90,10.31,PG,1707170790
365,Itoman,26.1247,127.6694,63.37,67,75,14.97,JP,1707170790
366,Bandarbeyla,9.4942,50.8122,77.23,78,62,12.68,SO,1707170790
367,Rawson,-43.3002,-65.1023,83.05,28,100,11.36,AR,1707170790
368,Miri,4.4148,114.0089,77.14,94,20,0.0,MY,1707170790
369,Am Timan,11.0297,20.2827,78.13,20,58,6.82,TD,1707170790
370,Kaiapoi,-43.3783,172.6401,80.71,45,99,5.75,NZ,1707170790
371,Palangkaraya,-2.2,113.8333,74.88,96,99,2.13,ID,1707170790
372,Masterton,-40.9597,175.6575,81.1,26,33,5.44,NZ,1707170791
373,Laem Sing,12.4816,102.0738,80.08,84,68,4.56,TH,1707170791
374,Colonia Menno,-22.3667,-59.8167,96.96,30,69,10.31,PY,1707170791
375,Cam Pha Mines,21.0167,107.3,63.75,98,100,7.74,VN,1707170791
376,Kenai,60.5544,-151.2583,22.08,88,100,11.5,US,1707170791
377,Cabo San Lucas,22.8909,-109.9124,87.62,41,20,6.91,MX,1707170761
378,El Fasher,13.6279,25.3494,61.29,17,64,8.37,SD,1707170791
379,Prado,-17.3411,-39.2208,78.51,85,54,6.38,BR,1707170791
380,Dan Sadau,11.2962,6.4952,71.56,14,33,12.21,NG,1707170792
381,Sitka,57.0531,-135.33,39.09,87,75,3.44,US,1707170718
382,Yunyang,33.4474,112.7142,27.14,90,99,1.28,CN,1707170792
383,Essaouira,31.5125,-9.77,58.5,44,40,4.61,MA,1707170792
384,Roma,43.2128,-75.4557,38.73,45,0,9.22,US,1707170764
385,Plottier,-38.9667,-68.2333,93.11,18,0,0.0,AR,1707170792
386,Ambatondrazaka,-17.8333,48.4167,67.95,99,100,1.66,MG,1707170792
387,Cururupu,-1.8283,-44.8683,77.41,92,42,3.47,BR,1707170792
388,Guiping,23.3925,110.0814,52.29,93,100,4.18,CN,1707170792
389,Gillette,44.2911,-105.5022,54.03,40,0,28.77,US,1707170564
390,Colonia,50.9333,6.95,48.85,77,100,13.8,DE,1707170792
391,Pitimbu,-7.4706,-34.8086,82.99,75,52,9.31,BR,1707170792
392,Palikir - National Government Center,6.9248,158.1611,83.25,84,100,9.22,FM,1707170793
393,Moanda,-1.5575,13.2178,73.27,93,97,4.45,GA,1707170793
394,Padangsidempuan,1.3667,99.2667,71.42,98,97,1.01,ID,1707170793
395,Maputo,-25.9653,32.5892,78.48,83,75,9.22,MZ,1707170793
396,Kirakira,-10.4544,161.9205,84.0,78,80,10.76,SB,1707170793
397,Chapaev,50.2,51.1667,33.03,98,100,14.45,KZ,1707170793
398,Copiapo,-27.3667,-70.3333,74.89,50,7,7.85,CL,1707170793
399,Temascal,18.2394,-96.4031,69.84,74,100,4.05,MX,1707170793
400,Angamacutiro De La Union,20.1667,-101.6833,81.54,7,1,5.23,MX,1707170793
401,Taoudenni,22.6783,-3.9836,68.59,11,96,10.8,ML,1707170793
402,Singaraja,-8.112,115.0882,79.41,84,90,3.11,ID,1707170794
403,Alegrete,-29.7831,-55.7919,84.33,71,82,10.22,BR,1707170630
404,Shilovo,54.3204,40.874,23.72,95,100,8.72,RU,1707170794
405,Nemuro,43.3236,145.575,18.12,78,98,12.95,JP,1707170794
406,Beroroha,-21.6667,45.1667,74.23,91,43,0.98,MG,1707170794
407,Madhupur,24.25,86.65,63.27,85,65,5.5,IN,1707170794
408,Sao Joao Da Barra,-21.6403,-41.0511,80.69,87,100,9.66,BR,1707170794
409,Filingue,14.3521,3.3168,72.34,14,96,14.0,NE,1707170794
410,Aitape,-3.1374,142.3475,80.17,83,94,3.78,PG,1707170794
411,San Andres,12.5847,-81.7006,84.22,74,40,9.22,CO,1707170794
412,Xiva,41.3783,60.3639,42.78,48,77,10.8,UZ,1707170794
413,Klyuchi,52.2667,79.1667,16.21,89,64,9.84,RU,1707170794
414,Kungur,57.4368,56.9593,25.23,95,99,9.93,RU,1707170794
415,Gornozavodsk,58.3758,58.3211,21.9,95,100,5.82,RU,1707170795
416,Kivioli,59.3531,26.9711,24.35,92,98,8.84,EE,1707170795
417,Bulungu,-4.55,18.6,71.02,96,89,1.25,CD,1707170795
418,Kapa'A,22.0752,-159.319,80.58,63,40,19.57,US,1707170795
419,Neiafu,-18.65,-173.9833,84.88,70,40,10.36,TO,1707170795
420,Orkney,-26.9802,26.6727,71.96,26,45,4.94,ZA,1707170795
421,Lompoc,34.6391,-120.4579,61.79,65,100,13.8,US,1707170795
422,Nova Vicosa,-17.8919,-39.3719,79.05,83,69,8.28,BR,1707170795
423,Puerto Santa,-8.9906,-78.6456,79.25,73,35,8.72,PE,1707170795
424,Crane,31.3974,-102.3501,59.2,36,4,4.72,US,1707170795
425,Cayiralan,39.3028,35.6439,35.55,95,98,12.17,TR,1707170795
426,Okha,53.5739,142.9478,-10.48,99,42,10.49,RU,1707170795
427,Abeche,13.8292,20.8324,70.12,16,10,15.43,TD,1707170796
428,Pishin,30.5803,66.9961,39.79,37,0,2.17,PK,1707170796
429,Skovorodino,53.9833,123.9167,-17.97,100,19,2.59,RU,1707170796
430,Coyhaique,-45.5752,-72.0662,67.95,40,20,4.61,CL,1707170796
431,Ghanzi,-21.5667,21.7833,79.61,35,100,3.85,BW,1707170796
432,Pierre,44.3683,-100.351,46.85,79,0,12.66,US,1707170796
433,Romans-Sur-Isere,45.0464,5.0562,52.39,89,73,3.51,FR,1707170796
434,Port Saint John'S,-31.6229,29.5448,73.98,92,0,5.97,ZA,1707170796
435,Thunder Bay,48.4001,-89.3168,39.18,87,75,8.05,CA,1707170796
436,Inirida,3.8653,-67.9239,81.82,80,76,2.57,CO,1707170796
437,Inhambane,-23.865,35.3833,76.53,87,3,4.0,MZ,1707170797
438,Aldinga Beach,-35.2793,138.4604,66.43,59,20,11.14,AU,1707170797
439,Zhanaozen,43.3,52.8,37.65,86,55,10.45,KZ,1707170797
440,Sokol'Skoye,57.1412,43.1589,6.82,98,92,4.63,RU,1707170797
441,Kokkola,63.8385,23.1307,16.03,85,0,8.05,FI,1707170797
442,Siguiri,11.6667,-9.5,79.93,14,0,3.44,GN,1707170797
443,Toamasina,-18.1667,49.3833,78.8,89,40,2.3,MG,1707170797
444,Moriki,12.8741,6.4875,67.03,16,64,11.9,NG,1707170797
445,Kone,-21.0595,164.8658,77.67,95,100,7.07,NC,1707170797
446,Pursat,12.3333,103.6667,75.45,78,6,1.77,KH,1707170797
447,Kabompo,-13.5927,24.2008,65.86,95,68,3.56,ZM,1707170797
448,Dera Ghazi Khan,30.0561,70.6348,54.5,57,3,5.99,PK,1707170797
449,Portland,45.5234,-122.6762,49.6,93,100,9.22,US,1707170691
450,Songkhla,6.8333,100.6667,73.45,93,99,1.7,TH,1707170798
451,Mweka,-4.85,21.5667,68.5,97,97,0.6,CD,1707170798
452,Floro,61.5996,5.0328,28.36,93,100,5.75,NO,1707170798
453,Pandan,14.0453,124.1694,77.61,86,79,12.48,PH,1707170798
454,Dagda,56.0951,27.5372,26.29,89,55,10.07,LV,1707170798
455,Daru,-9.0763,143.2092,79.61,89,100,6.82,PG,1707170798
456,Gadzhiyevo,69.2551,33.3362,-2.38,100,99,6.49,RU,1707170798
457,Boali,4.8005,18.1275,80.29,28,58,3.62,CF,1707170798
458,Sihanoukville,10.6093,103.5296,75.15,100,40,4.61,KH,1707170798
459,Raduzhny,62.0961,77.475,10.87,95,100,11.74,RU,1707170799
460,Pico Truncado,-46.7949,-67.9573,83.71,7,9,23.44,AR,1707170799
461,Kilindoni,-7.9139,39.6668,82.94,79,63,13.98,TZ,1707170799
462,Trujillo,-8.116,-79.03,76.96,73,20,9.22,PE,1707170685
463,Chernomorskoye,45.5039,32.6997,44.83,90,88,24.9,UA,1707170799
464,Lamar,33.6668,-95.5836,63.9,43,0,12.66,US,1707170799
465,Ashland,40.8167,-82.2665,36.41,92,59,13.15,US,1707170799
466,Kotabumi,-4.8333,104.9,74.66,96,100,4.09,ID,1707170799
467,Languyan,5.2618,120.0807,77.47,89,66,4.09,PH,1707170799
468,Puerto Lempira,15.2667,-83.7667,82.54,74,20,22.7,HN,1707170799
469,Falam,22.9167,93.6833,50.0,72,50,3.67,MM,1707170799
470,Dobropillya,48.4615,37.0852,32.05,89,97,26.91,UA,1707170800
471,Laguna,38.421,-121.4238,61.05,72,100,13.8,US,1707170800
472,Fisterra,42.9049,-9.2629,50.02,76,98,1.79,ES,1707170800
473,Bonthe,7.5264,-12.505,79.57,83,0,6.44,SL,1707170800
474,Chibougamau,49.9168,-74.3659,22.62,46,0,6.91,CA,1707170800
475,Brookings,44.3114,-96.7984,46.11,76,0,13.8,US,1707170800
476,Gourcy,13.2167,-2.35,71.82,15,87,10.76,BF,1707170800
477,Brokopondo,4.75,-55.1667,83.19,73,99,10.92,SR,1707170800
478,Champerico,14.3,-91.9167,91.94,65,3,14.81,GT,1707170800
479,Altamira,-3.2033,-52.2064,86.09,84,20,0.0,BR,1707170640
480,Geraldton,-28.7667,114.6,68.41,34,72,8.05,AU,1707170801
481,Suva,-18.1416,178.4415,78.28,94,75,5.75,FJ,1707170690
482,Namibe,-15.1961,12.1522,77.58,78,96,7.45,AO,1707170801
483,Santa Elena De Uairen,4.6167,-61.1333,77.22,59,100,2.98,VE,1707170801
484,Teluknaga,-6.0989,106.6381,82.53,94,40,4.61,ID,1707170801
485,Weno,7.4515,151.8468,81.5,70,64,22.01,FM,1707170801
486,Khandyga,62.6667,135.6,-46.57,100,62,2.3,RU,1707170801
487,Key Biscayne,25.6937,-80.1628,64.42,94,100,3.44,US,1707170801
488,Urucui,-7.2294,-44.5561,83.73,55,100,2.37,BR,1707170801
489,Urengoy,65.9667,78.3667,-13.32,100,100,7.72,RU,1707170716
490,Usinsk,65.9939,57.5281,-19.93,100,80,1.01,RU,1707170801
491,Kalpi,26.1167,79.7333,56.7,95,75,5.75,IN,1707170801
492,I-N-Salah,27.1935,2.4607,59.07,27,4,14.58,DZ,1707170802
493,Karachayevsk,43.774,41.9142,42.48,49,100,11.74,RU,1707170802
494,Gerdzhyush,37.5651,41.3916,32.63,94,99,0.78,TR,1707170802
495,Kailua-Kona,19.6406,-155.9956,80.56,70,40,13.8,US,1707170770
496,Usogorsk,63.4106,48.6872,-4.34,97,97,5.5,RU,1707170803
497,Brooks,50.5834,-111.8851,13.98,85,99,1.14,CA,1707170666
498,Otok,45.1467,18.8839,52.23,79,14,6.93,HR,1707170803
499,Northam,51.0333,-4.2167,55.65,95,100,22.12,GB,1707170803
500,Nieuw Amsterdam,5.8833,-55.0833,82.56,78,20,4.61,SR,1707170803
501,Krasnokuts'K,50.066,35.1628,31.87,87,100,19.06,UA,1707170804
502,Cerro Largo,-28.1486,-54.7381,85.14,62,94,8.28,BR,1707170804
503,Arvayheer,46.2639,102.775,-1.46,86,55,5.73,MN,1707170804
504,Casablanca,33.5928,-7.6192,57.42,75,100,2.06,MA,1707170804
505,Pangody,65.85,74.4859,-11.6,99,57,9.48,RU,1707170804
506,Bougouni,11.417,-7.479,80.04,12,0,5.88,ML,1707170804
507,Colby,39.3958,-101.0524,54.82,64,0,12.66,US,1707170804
508,Musoma,-1.5,33.8,69.15,83,36,4.7,TZ,1707170804
509,Sao Lourenco,-22.1164,-45.0544,66.38,93,95,5.03,BR,1707170804
510,Kourou,5.1552,-52.6478,82.45,87,81,8.43,GF,1707170804
511,Port Moresby,-9.4431,147.1797,79.68,80,100,6.35,PG,1707170805
512,Itapira,-22.4361,-46.8217,73.36,71,98,2.64,BR,1707170805
513,Huayin,34.5675,110.0921,30.0,87,100,0.87,CN,1707170805
514,Ialoveni,46.9431,28.7778,46.78,92,75,12.66,MD,1707170805
515,Metlili Chaamba,32.2667,3.6333,50.79,39,0,6.29,DZ,1707170805
516,San Miguel,13.4833,-88.1833,89.47,51,99,10.11,SV,1707170623
517,Buka,40.8108,69.1986,41.32,39,100,3.76,UZ,1707170805
518,Barra Do Corda,-5.5,-45.25,80.02,77,93,4.68,BR,1707170665
519,Bestobe,52.4994,73.0975,28.0,82,100,22.12,KZ,1707170805
520,Sumbe,-11.2061,13.8437,81.01,88,98,6.67,AO,1707170805
521,Nizhniy Kuranakh,58.8353,125.4869,-19.8,96,85,3.33,RU,1707170805
522,Leava,-14.3,-178.1667,83.3,79,100,10.94,WF,1707170805
523,Mar Del Plata,-38.0023,-57.5575,70.95,82,57,25.99,AR,1707170769
524,Peace River,56.2501,-117.286,29.17,46,100,8.21,CA,1707170806
525,Nacala,-14.5428,40.6728,75.43,96,99,4.38,MZ,1707170806
526,Ndele,8.4109,20.6473,76.59,25,4,6.6,CF,1707170806
527,Micheweni,-4.9667,39.8333,82.26,79,12,11.54,TZ,1707170806
528,La Punta,-33.1837,-66.3127,91.24,36,62,5.99,AR,1707170806
529,Damghan,36.1683,54.348,34.36,67,78,1.99,IR,1707170806
530,Artesia,33.8658,-118.0831,58.98,96,100,4.61,US,1707170806
531,Rongelap,11.1635,166.8941,79.81,83,87,19.82,MH,1707170806
532,Ghazni,33.5536,68.4269,17.8,74,5,4.5,AF,1707170806
533,Emerald,-23.5333,148.1667,80.35,73,30,9.04,AU,1707170806
534,Khovd,48.0056,91.6419,-4.29,90,30,1.36,MN,1707170806
535,Broken Hill,-31.95,141.4333,60.78,49,0,24.27,AU,1707170807
536,Balykshi,47.0667,51.8667,35.6,93,100,15.66,KZ,1707170807
537,Tofol,5.3248,163.0078,82.11,72,100,15.52,FM,1707170807
538,Yeniseysk,58.4497,92.1703,16.39,97,100,3.4,RU,1707170807
539,Olyokminsk,60.3736,120.4264,-9.38,93,92,2.28,RU,1707170807
540,Harnai,30.1005,67.9374,47.68,38,0,2.39,PK,1707170807
541,Spisska Bela,49.1872,20.4595,46.22,78,90,10.71,SK,1707170807
542,Benghazi,32.1167,20.0667,60.85,73,15,9.1,LY,1707170807
543,Vredendal,-31.6683,18.5012,67.15,90,3,4.5,ZA,1707170807
544,Yacuiba,-22.038,-63.6797,93.81,30,67,8.86,BO,1707170807
545,Bodo,67.28,14.405,24.78,74,0,16.11,NO,1707170807
546,Pindobacu,-10.7417,-40.3608,77.68,67,33,5.03,BR,1707170807
547,Mejit,10.2753,170.8646,79.99,82,91,18.43,MH,1707170808
548,Boyolangu,-8.1181,111.8935,76.57,90,69,2.66,ID,1707170808
549,San Pedro,14.35,121.0167,77.2,88,20,4.0,PH,1707170808
550,Arroyo De La Luz,39.4851,-6.584,54.52,84,100,1.92,ES,1707170808
551,Berber,18.0216,33.983,63.09,13,79,17.05,SD,1707170808
552,Fountain Inn,34.689,-82.1957,61.36,29,0,10.36,US,1707170808
553,Glenwood Springs,39.5505,-107.3248,51.35,55,0,12.66,US,1707170808
554,Novodvinsk,64.4165,40.8122,-13.22,100,67,2.86,RU,1707170808
555,Bardsir,29.9227,56.5743,34.97,23,0,5.55,IR,1707170808
556,Northampton,40.8754,-75.2499,42.91,56,6,6.04,US,1707170808
557,Antalaha,-14.9003,50.2788,76.98,89,98,4.38,MG,1707170808
558,Bikin,46.8161,134.26,-15.95,100,84,3.51,RU,1707170808
559,Malango,-2.9627,119.9001,67.93,93,100,2.86,ID,1707170809
560,Al Qusiyah,27.4402,30.8184,53.78,51,2,8.37,EG,1707170809
561,Trincomalee,8.5711,81.2335,80.2,67,96,10.89,LK,1707170809
562,Liberal,37.0431,-100.921,56.44,54,0,9.22,US,1707170809
563,Katsuren-Haebaru,26.3369,127.8719,63.37,69,75,6.91,JP,1707170809
564,Charters Towers,-20.1,146.2667,79.9,75,9,5.91,AU,1707170531
565,Wangqing,43.3218,129.7634,6.85,86,100,2.3,CN,1707170809
566,Mili,6.0815,171.735,81.43,73,93,17.96,MH,1707170809
567,Yicheng,31.3705,119.8703,31.8,88,100,5.64,CN,1707170809
568,Maych'Ew,12.7875,39.5422,54.18,83,43,3.56,ET,1707170809
569,Konstantinovka,49.6167,127.9833,-16.76,100,95,1.9,RU,1707170809
570,Kwadukuza,-29.3282,31.2895,72.27,93,86,4.68,ZA,1707170810
571,Port Augusta,-32.5,137.7667,63.19,50,0,19.89,AU,1707170810
572,Aleg,17.0481,-13.9209,78.82,8,3,10.13,MR,1707170810
573,Bireun,5.203,96.7009,77.14,86,100,2.15,ID,1707170810
574,Yebaishou,41.3975,119.6408,15.19,54,53,3.06,CN,1707170810
575,Antonio Enes,-16.2325,39.9086,76.75,92,100,3.98,MZ,1707170810
576,Torghay,49.6339,63.4981,31.96,96,100,17.11,KZ,1707170810
577,Sur,22.5667,59.5289,70.34,60,5,5.7,OM,1707170810
578,Guerrero Negro,27.9769,-114.0611,66.92,51,94,9.17,MX,1707170810
579,Dilling,12.05,29.65,66.09,17,16,15.95,SD,1707170810
580,Tatarbunary,45.8373,29.6142,47.86,76,100,10.2,UA,1707170810
581,Aasiaat,68.7098,-52.8699,-22.05,88,16,8.3,GL,1707170811
582,Victoria Point,-27.5833,153.3,81.91,83,83,1.9,AU,1707170811
583,Chenaran,36.6455,59.1212,36.09,58,14,2.64,IR,1707170811
584,Carbonear,47.7332,-53.2148,34.75,97,100,15.86,CA,1707170811
585,Caconda,-13.7333,15.0667,64.04,90,100,3.15,AO,1707170811
586,Anka,12.1138,5.9243,73.0,14,84,13.29,NG,1707170811
587,Timimoun,29.2639,0.231,56.23,37,56,12.62,DZ,1707170811
588,Coyuca De Catalan,18.3333,-100.65,98.08,10,0,1.63,MX,1707170811
589,Lengshuitan,26.4111,111.5956,34.02,91,100,6.08,CN,1707170811
590,Sabzevar,36.2126,57.6819,38.53,59,56,4.52,IR,1707170811
591,Karachi,24.9056,67.0822,64.22,82,20,4.61,PK,1707170812
592,Tongliao,43.6125,122.2653,2.39,93,100,2.64,CN,1707170812
593,Kuta,-8.7233,115.1723,82.35,83,40,8.05,ID,1707170812
594,North Side,19.35,-81.2,82.47,48,0,19.57,KY,1707170812
595,Vieux-Habitants,16.0589,-61.7659,80.17,79,68,11.59,GP,1707170812
596,Phanom Sarakham,13.7479,101.3553,81.93,92,68,1.25,TH,1707170812
597,Kargat,55.1956,80.2811,22.69,89,94,14.92,RU,1707170812
598,Remire-Montjoly,4.9167,-52.2667,82.44,89,75,11.5,GF,1707170812
599,Gole,52.1665,20.4937,40.01,93,100,4.21,PL,1707170812
600,Wanning,18.8003,110.3967,71.78,94,22,5.28,CN,1707170755
601,Igarka,67.4667,86.5833,-15.93,99,47,5.77,RU,1707170812
602,Opuwo,-18.0607,13.84,71.73,84,100,3.8,NA,1707170812
603,Keren,15.7778,38.4581,62.44,78,39,5.66,ER,1707170813
604,Chingirlau,51.095,54.0814,32.0,99,100,6.11,KZ,1707170813
605,Alnwick,55.4132,-1.7056,51.89,76,100,29.93,GB,1707170813
606,Santona,43.4439,-3.4576,55.22,92,100,3.56,ES,1707170813
607,Mwene-Ditu,-7.0,23.45,67.35,89,99,1.45,CD,1707170813
608,Tangalle,6.024,80.7911,77.16,86,90,11.72,LK,1707170813
609,Vorotynsk,54.4283,36.0465,26.73,96,100,7.0,RU,1707170813
610,Dolores,-36.3132,-57.6792,75.33,57,35,15.48,AR,1707170813
611,Kaitong,44.8135,123.15,1.47,89,100,0.65,CN,1707170813
612,San Jose De Jachal,-30.2406,-68.7469,85.68,36,73,11.72,AR,1707170813
613,Ust-Tsilma,65.441,52.1498,-28.39,100,100,1.01,RU,1707170813
614,Ciudad Lazaro Cardenas,17.9583,-102.2,82.22,62,1,9.1,MX,1707170813
615,Pekan,3.4836,103.3996,75.04,91,84,6.11,MY,1707170814
616,Lobujya,27.95,86.8167,-0.38,30,0,3.02,NP,1707170814
617,Sittwe,20.15,92.9,67.6,60,2,8.16,MM,1707170814
618,Diapaga,12.0708,1.7889,75.78,13,79,11.12,BF,1707170814
619,Labuan,5.2767,115.2417,79.09,84,83,3.98,MY,1707170814
620,Vanimo,-2.6741,141.3028,79.36,89,97,5.35,PG,1707170814
621,Codrington,-38.2667,141.9667,61.5,57,3,10.47,AU,1707170814
622,Kyshtovka,56.555,76.6271,29.34,91,100,15.99,RU,1707170814
623,Huaral,-11.495,-77.2078,79.02,65,36,6.62,PE,1707170814
624,Yakeshi,49.2833,120.7333,-21.89,100,46,2.04,CN,1707170814
625,Muhos,64.808,25.9931,10.76,94,91,5.82,FI,1707170814
626,Tomioka,36.25,138.9,38.07,99,100,2.08,JP,1707170814
627,Cockburn Town,21.4612,-71.1419,78.55,80,10,13.51,TC,1707170815
628,Iwaki,37.05,140.8833,38.12,82,100,1.01,JP,1707170815
629,Urzhar,47.093,81.6294,13.96,69,74,4.61,KZ,1707170815
630,Ryotsu-Minato,38.0833,138.4333,37.2,85,98,7.29,JP,1707170815
631,Gazli,40.1333,63.45,42.44,54,27,10.33,UZ,1707170815
632,Barlig,17.0373,121.1038,56.79,93,72,1.72,PH,1707170815
633,Paramonga,-10.6667,-77.8333,78.48,73,21,9.08,PE,1707170815
634,Sos'Va,59.1766,61.8558,-2.94,100,92,1.01,RU,1707170815
635,Fortaleza,-3.7227,-38.5247,84.33,79,20,11.5,BR,1707170815
636,Wanganui,-39.9333,175.05,72.36,56,29,6.67,NZ,1707170700
637,Argo,37.6333,22.7333,51.78,58,0,5.73,GR,1707170815
638,Fuding,27.3273,120.214,46.24,93,100,2.77,CN,1707170816
639,Sao Joao Do Piaui,-8.3581,-42.2467,89.37,37,99,8.3,BR,1707170816
640,Lensk,60.7253,114.9278,15.17,96,100,4.92,RU,1707170816
641,Glazunovka,52.4986,36.3275,19.71,95,79,11.65,RU,1707170816
642,Saldanha,-33.0117,17.9442,64.38,95,49,4.92,ZA,1707170816
643,Virginia,37.5481,-77.4467,53.74,41,0,6.91,US,1707170816
644,Mbanza Kongo,-6.267,14.2401,69.49,95,83,1.25,AO,1707170816
645,Tual,-5.6667,132.75,83.88,75,100,16.4,ID,1707170816
646,Wewak,-3.5534,143.6268,80.24,84,90,3.09,PG,1707170816
647,Masindi Port,1.6961,32.0861,74.26,54,69,2.1,UG,1707170816
648,Eldorado,-23.7869,-54.2836,88.25,42,77,11.27,BR,1707170816
649,Caldwell,43.6629,-116.6874,57.34,53,75,16.11,US,1707170816
650,Hofu,34.05,131.5667,43.12,81,59,5.66,JP,1707170817
651,Minab,27.1467,57.0801,64.0,44,57,4.29,IR,1707170817
652,Gryazovets,58.88,40.2525,6.19,99,99,3.69,RU,1707170817
653,Reyes,-14.3167,-67.3833,85.96,84,75,0.0,BO,1707170817
654,Corowa,-36.0333,146.3833,63.57,62,31,10.6,AU,1707170817
655,Rmi Capitol,7.0893,171.3805,84.15,74,100,14.97,MH,1707170817
656,Yarkovo,57.4028,67.0786,32.97,97,100,11.34,RU,1707170817
657,Margate,51.3813,1.3862,51.91,77,100,11.99,GB,1707170817
658,Chonchi,-42.6128,-73.8092,70.81,49,43,6.38,CL,1707170817
659,Saint-Louis,16.3333,-15.0,79.48,9,26,11.65,SN,1707170817
660,Nalut,30.3333,10.85,52.56,44,0,6.11,LY,1707170817
661,Manwat,19.3,76.5,73.35,39,0,7.45,IN,1707170817
662,Samarinda,-0.5,117.15,73.15,97,100,2.1,ID,1707170817
663,Aweil,8.7682,27.4002,75.79,20,27,5.79,SS,1707170818
664,Nadi,-17.8,177.4167,87.8,74,75,5.75,FJ,1707170658
665,Mangaratiba,-22.9597,-44.0406,76.5,87,85,3.04,BR,1707170818
666,Lambarene,-0.7001,10.2406,78.39,93,94,1.92,GA,1707170818
667,Kuusamo,65.9667,29.1833,-0.36,85,40,3.44,FI,1707170818
668,Sarupathar,26.1984,93.8094,55.22,96,96,3.42,IN,1707170818
669,Antofagasta,-23.65,-70.4,76.5,69,5,6.46,CL,1707170818
670,Stornoway,58.2093,-6.3865,39.38,89,75,9.22,GB,1707170818
671,Kargasok,59.0556,80.8572,22.96,94,100,13.0,RU,1707170818
672,Taltal,-25.4,-70.4833,73.98,73,0,4.81,CL,1707170818
673,Dem'Yanovo,60.3511,47.0842,-12.57,100,99,3.76,RU,1707170818
674,Corumba,-19.0092,-57.6533,85.71,79,40,0.0,BR,1707170818
675,North Bondi,-33.8824,151.2769,73.94,91,75,13.8,AU,1707170819
676,Gaigeturi,33.4644,126.3183,46.47,74,97,13.51,KR,1707170819
677,Labytnangi,66.6572,66.4183,-14.13,99,100,4.32,RU,1707170819
678,Burutu,5.3509,5.5076,79.2,79,79,4.61,NG,1707170819
679,Huilong,31.8111,121.655,33.3,84,100,10.74,CN,1707170819
680,Birch Bay,48.9179,-122.7446,49.21,75,100,8.01,US,1707170819
681,Akureyri,65.6835,-18.0878,11.84,96,100,5.19,IS,1707170819
682,Lazaro Cardenas,17.9583,-102.2,82.22,62,1,9.1,MX,1707170819
683,Santana Do Livramento,-30.8908,-55.5328,83.19,67,100,2.08,BR,1707170638
684,Hirara,24.8,125.2833,64.85,77,100,18.88,JP,1707170819
685,Ilha De Mocambique,-15.0342,40.7358,78.66,84,100,6.22,MZ,1707170771
686,Qianjiang,30.4151,112.8859,29.75,98,100,6.02,CN,1707170819
687,Mae Hong Son,19.3003,97.9685,57.94,54,2,1.5,TH,1707170820
688,Miyako,39.6367,141.9525,31.01,74,100,4.99,JP,1707170820
689,Karratha,-20.7377,116.8463,80.4,68,14,3.6,AU,1707170820
690,Puerto Deseado,-47.7503,-65.8938,63.97,55,0,18.05,AR,1707170820
691,Kabwe,-14.4469,28.4464,67.32,78,63,4.0,ZM,1707170820
692,Ventnor,50.5948,-1.2037,53.11,87,100,5.01,GB,1707170820
693,Morondava,-20.2833,44.2833,80.89,80,12,2.13,MG,1707170820
694,Bumba,2.1833,22.4667,75.99,40,9,0.29,CD,1707170820
695,Kara Suu,40.7046,72.8667,31.96,74,100,6.71,KG,1707170820
696,Tabou,4.423,-7.3528,82.36,77,32,9.84,CI,1707170820
697,Joigny,47.9829,3.401,42.82,85,68,10.4,FR,1707170821
698,Turpan,42.9333,89.1667,31.06,50,5,2.24,CN,1707170821
699,Mendaha,-1.0333,103.5833,75.29,95,100,1.79,ID,1707170821
700,Kalispell,48.1958,-114.3129,35.78,91,100,3.44,US,1707170731
701,Jasper,37.2001,-94.3502,56.23,44,0,8.05,US,1707170602
702,Valdivia,-39.8142,-73.2459,69.13,74,87,4.97,CL,1707170821
703,Bloomfield,40.8068,-74.1854,44.58,37,0,13.8,US,1707170754
704,Barreirinhas,-2.7469,-42.8264,81.64,77,76,9.53,BR,1707170821
705,Itaituba,-4.2761,-55.9836,91.56,62,20,4.61,BR,1707170545
706,Mokhsogollokh,61.4681,128.9203,-39.77,100,96,1.7,RU,1707170821
707,Bayanhongor,46.7167,100.1167,-16.1,79,13,4.14,MN,1707170822
708,Saurimo,-9.6608,20.3916,64.74,97,95,2.51,AO,1707170822
709,Pola De Lena,43.1609,-5.8288,48.85,93,100,1.43,ES,1707170822
710,Lagoa,39.05,-27.9833,62.38,88,97,12.46,PT,1707170822
711,Wang Saphung,17.301,101.7685,70.2,35,0,2.73,TH,1707170822
712,Obihiro,42.9172,143.2044,7.11,91,78,3.38,JP,1707170822
713,Smithers,54.7804,-127.1743,31.35,63,100,3.27,CA,1707170822
714,Akjoujt,19.6969,-14.4164,73.47,7,40,11.03,MR,1707170822
715,Xinzhi,36.4989,111.7047,28.58,82,99,4.47,CN,1707170822
716,Labasa,-16.4167,179.3833,85.59,71,100,2.17,FJ,1707170822
717,Lichinga,-13.3128,35.2406,63.9,91,100,2.37,MZ,1707170822
718,Ishim,56.1128,69.4902,31.03,96,100,18.99,RU,1707170823
719,Sokoni,-6.4333,39.55,82.74,77,13,12.71,TZ,1707170823
720,Veraval,20.9,70.3667,71.82,81,3,9.78,IN,1707170823
721,Tullamore,53.2739,-7.4889,51.39,90,100,16.17,IE,1707170823
722,Tongouson,5.0214,120.1328,79.59,82,71,5.06,PH,1707170823
723,Faya-Largeau,17.9257,19.1043,63.95,24,63,25.3,TD,1707170823
724,Dowlatabad,32.7998,51.6955,26.28,74,0,4.61,IR,1707170823
725,Madera,37.1666,-119.8343,62.4,57,99,5.97,US,1707170823
726,Sumbawanga,-7.9667,31.6167,59.74,97,100,0.29,TZ,1707170823
727,Borogontsy,62.6683,131.1683,-34.06,100,100,2.13,RU,1707170824
728,Aracatuba,-21.2089,-50.4328,84.38,61,40,4.61,BR,1707170534
729,Alofi,-19.0595,-169.9187,82.29,74,75,12.66,NU,1707170824
730,El Porvenir,13.7617,-87.3458,88.93,49,88,6.04,HN,1707170824
731,Alupka,44.4167,34.05,49.44,83,96,28.5,UA,1707170824
732,Krasnozerskoye,53.9828,79.2374,21.02,88,89,14.23,RU,1707170824
733,Cabedelo,-6.9811,-34.8339,84.87,77,34,10.67,BR,1707170544
734,Cartagena,10.3997,-75.5144,85.62,79,40,9.22,CO,1707170824
735,Ruidoso,33.3317,-105.673,60.04,23,0,0.0,US,1707170824
736,Pudozh,61.8099,36.5345,-0.06,96,98,7.0,RU,1707170824
737,Camocim,-2.9022,-40.8411,82.56,76,16,19.33,BR,1707170824
738,Azacualpa,15.3433,-88.5514,84.85,52,16,6.51,HN,1707170824
739,Valparaiso,-33.0393,-71.6273,77.23,56,0,11.5,CL,1707170683
740,Mersa Matruh,31.3525,27.2453,58.8,79,0,11.14,EG,1707170825
741,Conde,-7.2597,-34.9075,81.86,78,20,8.05,BR,1707170825
